[{"name": "Almagro Caf\u00e9 & Bar", "latitude": 40.42874303276238, "longitude": -3.6945537767333723, "location": {"type": "Point", "coordinates": [40.42874303276238, -3.6945537767333723]}, "type": "Spanish"}, {"name": "Pura Vida cocktail bar", "latitude": 40.4312771370706, "longitude": -3.6982351541519165, "location": {"type": "Point", "coordinates": [40.4312771370706, -3.6982351541519165]}, "type": "Cocktail"}, {"name": "Steak Burger Bar", "latitude": 40.4302239000638, "longitude": -3.700607540432145, "location": {"type": "Point", "coordinates": [40.4302239000638, -3.700607540432145]}, "type": "Burgers"}, {"name": "Bar", "latitude": 40.429014364706056, "longitude": -3.6851366173838027, "location": {"type": "Point", "coordinates": [40.429014364706056, -3.6851366173838027]}, "type": "Bar"}, {"name": "Steak Burger Bar", "latitude": 40.425011715837506, "longitude": -3.700787857475491, "location": {"type": "Point", "coordinates": [40.425011715837506, -3.700787857475491]}, "type": "Burgers"}, {"name": "RHINO Wild Bar & Bistr\u00f3", "latitude": 40.427269389989185, "longitude": -3.701089099049163, "location": {"type": "Point", "coordinates": [40.427269389989185, -3.701089099049163]}, "type": "Bistro"}, {"name": "Bar Segovia", "latitude": 40.43104594358479, "longitude": -3.7134364951350998, "location": {"type": "Point", "coordinates": [40.43104594358479, -3.7134364951350998]}, "type": "Brewery"}, {"name": "Bar Restaurante Loreto (Casa de las Bravas)", "latitude": 40.430308373647364, "longitude": -3.7022513810836766, "location": {"type": "Point", "coordinates": [40.430308373647364, -3.7022513810836766]}, "type": "Tapas"}, {"name": "Bar Los Torreznos", "latitude": 40.44138722012731, "longitude": -3.6975332557983007, "location": {"type": "Point", "coordinates": [40.44138722012731, -3.6975332557983007]}, "type": "Bar"}, {"name": "Hot Bar", "latitude": 40.420855519846654, "longitude": -3.7000007254478855, "location": {"type": "Point", "coordinates": [40.420855519846654, -3.7000007254478855]}, "type": "Gay Bar"}, {"name": "Bar Lagasca 80", "latitude": 40.4290303577123, "longitude": -3.6849830620465154, "location": {"type": "Point", "coordinates": [40.4290303577123, -3.6849830620465154]}, "type": "Tapas"}, {"name": "Bar Red", "latitude": 40.42579003450738, "longitude": -3.7031809646821667, "location": {"type": "Point", "coordinates": [40.42579003450738, -3.7031809646821667]}, "type": "Bar"}, {"name": "Bar Restaurante Iberia", "latitude": 40.42967738548267, "longitude": -3.705632587479842, "location": {"type": "Point", "coordinates": [40.42967738548267, -3.705632587479842]}, "type": "Caf\u00e9"}, {"name": "Cafeter\u00eda Bar Domino", "latitude": 40.42491197513623, "longitude": -3.7020900124917913, "location": {"type": "Point", "coordinates": [40.42491197513623, -3.7020900124917913]}, "type": "Caf\u00e9"}, {"name": "Boutique Franck Muller & Complications Bar", "latitude": 40.425296, "longitude": -3.686998, "location": {"type": "Point", "coordinates": [40.425296, -3.686998]}, "type": "Lounge"}, {"name": "Bar-Cervecer\u00eda Ponzano", "latitude": 40.43762002108963, "longitude": -3.6993648562504315, "location": {"type": "Point", "coordinates": [40.43762002108963, -3.6993648562504315]}, "type": "Bar"}, {"name": "Bar Cruz De Mayo II", "latitude": 40.440572, "longitude": -3.697181, "location": {"type": "Point", "coordinates": [40.440572, -3.697181]}, "type": "Spanish"}, {"name": "Copper (Naked Fetish Gay Bar)", "latitude": 40.42578366779175, "longitude": -3.704200914639627, "location": {"type": "Point", "coordinates": [40.42578366779175, -3.704200914639627]}, "type": "Gay Bar"}, {"name": "Angie Bar", "latitude": 40.425619, "longitude": -3.702081, "location": {"type": "Point", "coordinates": [40.425619, -3.702081]}, "type": "Pub"}, {"name": "Bar restaurante O'Cruceiro", "latitude": 40.42513355204005, "longitude": -3.683457440811484, "location": {"type": "Point", "coordinates": [40.42513355204005, -3.683457440811484]}, "type": "Restaurant"}, {"name": "Bear's Bar", "latitude": 40.422014488989596, "longitude": -3.6990467739909274, "location": {"type": "Point", "coordinates": [40.422014488989596, -3.6990467739909274]}, "type": "Gay Bar"}, {"name": "Mawey Taco Bar", "latitude": 40.421124, "longitude": -3.708341, "location": {"type": "Point", "coordinates": [40.421124, -3.708341]}, "type": "Tacos"}, {"name": "ginkgo sky bar", "latitude": 40.42256703013509, "longitude": -3.7115436388327327, "location": {"type": "Point", "coordinates": [40.42256703013509, -3.7115436388327327]}, "type": "Roof Deck"}, {"name": "DRY Martini Bar", "latitude": 40.426137424517314, "longitude": -3.6894695660742753, "location": {"type": "Point", "coordinates": [40.426137424517314, -3.6894695660742753]}, "type": "Cocktail"}, {"name": "Poncelet Cheese Bar", "latitude": 40.438328704033125, "longitude": -3.6921571740363075, "location": {"type": "Point", "coordinates": [40.438328704033125, -3.6921571740363075]}, "type": "Restaurant"}, {"name": "Ocean Rock Bar", "latitude": 40.42574893675698, "longitude": -3.703573307689956, "location": {"type": "Point", "coordinates": [40.42574893675698, -3.703573307689956]}, "type": "Bar"}, {"name": "Bar Rubi", "latitude": 40.43502133949173, "longitude": -3.680762949571264, "location": {"type": "Point", "coordinates": [40.43502133949173, -3.680762949571264]}, "type": "Coffee Shop"}, {"name": "Bar Tanin", "latitude": 40.431454171151096, "longitude": -3.6956339732789862, "location": {"type": "Point", "coordinates": [40.431454171151096, -3.6956339732789862]}, "type": "Caf\u00e9"}, {"name": "Sky Bar", "latitude": 40.41331592745147, "longitude": -3.700472439784997, "location": {"type": "Point", "coordinates": [40.41331592745147, -3.700472439784997]}, "type": "Roof Deck"}, {"name": "La Ruleta Gin Tonic Bar Madrid", "latitude": 40.42823797259571, "longitude": -3.683839225333051, "location": {"type": "Point", "coordinates": [40.42823797259571, -3.683839225333051]}, "type": "Cocktail"}, {"name": "Basket Revolution", "latitude": 40.441296, "longitude": -3.706474, "location": {"type": "Point", "coordinates": [40.441296, -3.706474]}, "type": "Sporting Goods"}, {"name": "Basket!", "latitude": 40.45163158905951, "longitude": -3.7032594215855865, "location": {"type": "Point", "coordinates": [40.45163158905951, -3.7032594215855865]}, "type": "Toys & Games"}, {"name": "BasketSpirit", "latitude": 40.4245311685146, "longitude": -3.7047529220581055, "location": {"type": "Point", "coordinates": [40.4245311685146, -3.7047529220581055]}, "type": "Sporting Goods"}, {"name": "Basket Revolution", "latitude": 40.44643822342733, "longitude": -3.670689599062925, "location": {"type": "Point", "coordinates": [40.44643822342733, -3.670689599062925]}, "type": "Sporting Goods"}, {"name": "Gigantes del basket", "latitude": 40.436941, "longitude": -3.682839, "location": {"type": "Point", "coordinates": [40.436941, -3.682839]}, "type": "Office"}, {"name": "Sede de la World Basketball Clubs (WBC)", "latitude": 40.4300780144039, "longitude": -3.708145465356635, "location": {"type": "Point", "coordinates": [40.4300780144039, -3.708145465356635]}, "type": "Basketball"}, {"name": "Samsung Basket Zone", "latitude": 40.418666217664025, "longitude": -3.7221931497454643, "location": {"type": "Point", "coordinates": [40.418666217664025, -3.7221931497454643]}, "type": "Entertainment"}, {"name": "Stadium Gimnasio", "latitude": 40.40752913351049, "longitude": -3.6982747554564392, "location": {"type": "Point", "coordinates": [40.40752913351049, -3.6982747554564392]}, "type": "Gym"}, {"name": "Atletico Madrid Stadium", "latitude": 40.401791, "longitude": -3.720765, "location": {"type": "Point", "coordinates": [40.401791, -3.720765]}, "type": "Memorial Site"}, {"name": "Canchas basket", "latitude": 40.451917448256474, "longitude": -3.774143244435808, "location": {"type": "Point", "coordinates": [40.451917448256474, -3.774143244435808]}, "type": "Basketball Court"}, {"name": "Estadio de Vallecas", "latitude": 40.39174723989229, "longitude": -3.6586403846740723, "location": {"type": "Point", "coordinates": [40.39174723989229, -3.6586403846740723]}, "type": "Soccer"}, {"name": "Basketcenter.es", "latitude": 40.34612709780479, "longitude": -3.7981796264648438, "location": {"type": "Point", "coordinates": [40.34612709780479, -3.7981796264648438]}, "type": "Sporting Goods"}, {"name": "Estadio Santiago Bernab\u00e9u", "latitude": 40.453062156131594, "longitude": -3.6883378028869624, "location": {"type": "Point", "coordinates": [40.453062156131594, -3.6883378028869624]}, "type": "Soccer"}, {"name": "La Caja M\u00e1gica", "latitude": 40.36873258673504, "longitude": -3.684368133544922, "location": {"type": "Point", "coordinates": [40.36873258673504, -3.684368133544922]}, "type": "Event Space"}, {"name": "Ciudad Deportiva Rayo Vallecano Campo 5 Stadium", "latitude": 40.37633525362994, "longitude": -3.6112463161209645, "location": {"type": "Point", "coordinates": [40.37633525362994, -3.6112463161209645]}, "type": "Soccer"}, {"name": "Game Time \"La Caba\u00f1a\"", "latitude": 40.417217270477096, "longitude": -3.8384281342279643, "location": {"type": "Point", "coordinates": [40.417217270477096, -3.8384281342279643]}, "type": "Basketball Court"}, {"name": "J. Caballero Stadium", "latitude": 40.537498023331786, "longitude": -3.6172163486480713, "location": {"type": "Point", "coordinates": [40.537498023331786, -3.6172163486480713]}, "type": "Athletics & Sports"}, {"name": "Pimponetic Stadium", "latitude": 40.55395563484, "longitude": -3.609193706132288, "location": {"type": "Point", "coordinates": [40.55395563484, -3.609193706132288]}, "type": "Tennis Court"}, {"name": "Cancha Callejera Basket", "latitude": 40.49713, "longitude": -3.50561, "location": {"type": "Point", "coordinates": [40.49713, -3.50561]}, "type": "Basketball Court"}, {"name": "Raf'Oh HQ (Cubi Stadium)", "latitude": 40.28817633112905, "longitude": -3.801829391208343, "location": {"type": "Point", "coordinates": [40.28817633112905, -3.801829391208343]}, "type": "Residential"}, {"name": "Canchas de baloncesto 'Club Piratas Soto Basket'", "latitude": 40.74900665042987, "longitude": -3.78633163389661, "location": {"type": "Point", "coordinates": [40.74900665042987, -3.78633163389661]}, "type": "Basketball Court"}, {"name": "Starbucks", "latitude": 40.425760357264515, "longitude": -3.691781759262085, "location": {"type": "Point", "coordinates": [40.425760357264515, -3.691781759262085]}, "type": "Coffee Shop"}, {"name": "Starbucks", "latitude": 40.4335639178076, "longitude": -3.6868293595360973, "location": {"type": "Point", "coordinates": [40.4335639178076, -3.6868293595360973]}, "type": "Coffee Shop"}, {"name": "Starbucks", "latitude": 40.43296760669224, "longitude": -3.6832201480865474, "location": {"type": "Point", "coordinates": [40.43296760669224, -3.6832201480865474]}, "type": "Coffee Shop"}, {"name": "Starbucks", "latitude": 40.424974636524, "longitude": -3.684107212216363, "location": {"type": "Point", "coordinates": [40.424974636524, -3.684107212216363]}, "type": "Coffee Shop"}, {"name": "Starbucks", "latitude": 40.42014039388448, "longitude": -3.702886033408268, "location": {"type": "Point", "coordinates": [40.42014039388448, -3.702886033408268]}, "type": "Coffee Shop"}, {"name": "Starbucks", "latitude": 40.433353, "longitude": -3.703958, "location": {"type": "Point", "coordinates": [40.433353, -3.703958]}, "type": "Coffee Shop"}, {"name": "Starbucks", "latitude": 40.427274, "longitude": -3.695356, "location": {"type": "Point", "coordinates": [40.427274, -3.695356]}, "type": "Coffee Shop"}, {"name": "Starbucks", "latitude": 40.421751918201934, "longitude": -3.7083782102926905, "location": {"type": "Point", "coordinates": [40.421751918201934, -3.7083782102926905]}, "type": "Coffee Shop"}, {"name": "Starbucks", "latitude": 40.418038185194774, "longitude": -3.699371513099982, "location": {"type": "Point", "coordinates": [40.418038185194774, -3.699371513099982]}, "type": "Coffee Shop"}, {"name": "Starbucks", "latitude": 40.417539, "longitude": -3.702775, "location": {"type": "Point", "coordinates": [40.417539, -3.702775]}, "type": "Coffee Shop"}, {"name": "Starbucks", "latitude": 40.41719516711848, "longitude": -3.706118548830636, "location": {"type": "Point", "coordinates": [40.41719516711848, -3.706118548830636]}, "type": "Coffee Shop"}, {"name": "Starbucks", "latitude": 40.423112989750564, "longitude": -3.700798408458431, "location": {"type": "Point", "coordinates": [40.423112989750564, -3.700798408458431]}, "type": "Coffee Shop"}, {"name": "Starbucks", "latitude": 40.42906874005007, "longitude": -3.7150786671568476, "location": {"type": "Point", "coordinates": [40.42906874005007, -3.7150786671568476]}, "type": "Coffee Shop"}, {"name": "Starbucks", "latitude": 40.423319643246955, "longitude": -3.710882844657412, "location": {"type": "Point", "coordinates": [40.423319643246955, -3.710882844657412]}, "type": "Coffee Shop"}, {"name": "Starbucks", "latitude": 40.426066801136066, "longitude": -3.6756167469058876, "location": {"type": "Point", "coordinates": [40.426066801136066, -3.6756167469058876]}, "type": "Coffee Shop"}, {"name": "Starbucks", "latitude": 40.44748872381242, "longitude": -3.6930934929855574, "location": {"type": "Point", "coordinates": [40.44748872381242, -3.6930934929855574]}, "type": "Coffee Shop"}, {"name": "Starbucks", "latitude": 40.44772869759542, "longitude": -3.6951754717412046, "location": {"type": "Point", "coordinates": [40.44772869759542, -3.6951754717412046]}, "type": "Coffee Shop"}, {"name": "Starbucks", "latitude": 40.419667845686355, "longitude": -3.7061354223688325, "location": {"type": "Point", "coordinates": [40.419667845686355, -3.7061354223688325]}, "type": "Coffee Shop"}, {"name": "Starbucks", "latitude": 40.41573297582015, "longitude": -3.708717822655616, "location": {"type": "Point", "coordinates": [40.41573297582015, -3.708717822655616]}, "type": "Coffee Shop"}, {"name": "Starbucks", "latitude": 40.421095, "longitude": -3.70256, "location": {"type": "Point", "coordinates": [40.421095, -3.70256]}, "type": "Coffee Shop"}, {"name": "Starbucks", "latitude": 40.42075183549848, "longitude": -3.6993145297210788, "location": {"type": "Point", "coordinates": [40.42075183549848, -3.6993145297210788]}, "type": "Coffee Shop"}, {"name": "Starbucks", "latitude": 40.418149367007935, "longitude": -3.709949400269419, "location": {"type": "Point", "coordinates": [40.418149367007935, -3.709949400269419]}, "type": "Coffee Shop"}, {"name": "Starbucks", "latitude": 40.41748942152583, "longitude": -3.70466514037747, "location": {"type": "Point", "coordinates": [40.41748942152583, -3.70466514037747]}, "type": "Coffee Shop"}, {"name": "Starbucks", "latitude": 40.40885214578761, "longitude": -3.693236539287397, "location": {"type": "Point", "coordinates": [40.40885214578761, -3.693236539287397]}, "type": "Coffee Shop"}, {"name": "Starbucks", "latitude": 40.440273, "longitude": -3.682125, "location": {"type": "Point", "coordinates": [40.440273, -3.682125]}, "type": "Coffee Shop"}, {"name": "Starbucks", "latitude": 40.420450975922165, "longitude": -3.6796733064135796, "location": {"type": "Point", "coordinates": [40.420450975922165, -3.6796733064135796]}, "type": "Coffee Shop"}, {"name": "Starbucks", "latitude": 40.421949993513195, "longitude": -3.7203776278003375, "location": {"type": "Point", "coordinates": [40.421949993513195, -3.7203776278003375]}, "type": "Coffee Shop"}, {"name": "Starbucks", "latitude": 40.455046, "longitude": -3.693885, "location": {"type": "Point", "coordinates": [40.455046, -3.693885]}, "type": "Coffee Shop"}, {"name": "Starbucks", "latitude": 40.463373433797436, "longitude": -3.569932193974597, "location": {"type": "Point", "coordinates": [40.463373433797436, -3.569932193974597]}, "type": "Coffee Shop"}, {"name": "Starbucks", "latitude": 40.49024076241017, "longitude": -3.5910167013925776, "location": {"type": "Point", "coordinates": [40.49024076241017, -3.5910167013925776]}, "type": "Coffee Shop"}, {"name": "Colegio de Caminos, Canales y Puertos", "latitude": 40.43192251526563, "longitude": -3.6913432980254606, "location": {"type": "Point", "coordinates": [40.43192251526563, -3.6913432980254606]}, "type": "Building"}, {"name": "Colegio Maria Inmaculada", "latitude": 40.43425960126786, "longitude": -3.695534884698451, "location": {"type": "Point", "coordinates": [40.43425960126786, -3.695534884698451]}, "type": "High School"}, {"name": "Colegio Esclavas del Sagrado Coraz\u00f3n", "latitude": 40.43500613477798, "longitude": -3.69701627921573, "location": {"type": "Point", "coordinates": [40.43500613477798, -3.69701627921573]}, "type": "Education"}, {"name": "Colegio Profesional de Administradores de Fincas", "latitude": 40.437130389638526, "longitude": -3.696302826274134, "location": {"type": "Point", "coordinates": [40.437130389638526, -3.696302826274134]}, "type": "Community College"}, {"name": "Colegio Oficial de Ingenieros de Telecomunicaci\u00f3n, COIT", "latitude": 40.42403573846143, "longitude": -3.6988742767989113, "location": {"type": "Point", "coordinates": [40.42403573846143, -3.6988742767989113]}, "type": "Office"}, {"name": "Ilustre Colegio de Abogados de Madrid (ICAM)", "latitude": 40.42226529698377, "longitude": -3.6884737777984564, "location": {"type": "Point", "coordinates": [40.42226529698377, -3.6884737777984564]}, "type": "Government"}, {"name": "Colegio Inmaculada-Marillac", "latitude": 40.43689784149113, "longitude": -3.6972540990987013, "location": {"type": "Point", "coordinates": [40.43689784149113, -3.6972540990987013]}, "type": "High School"}, {"name": "Colegio P\u00fablico Pi i Margall", "latitude": 40.42691710653126, "longitude": -3.7041166750741366, "location": {"type": "Point", "coordinates": [40.42691710653126, -3.7041166750741366]}, "type": "College & Education"}, {"name": "Colegio Nuestra Se\u00f1ora del Pilar", "latitude": 40.42763190893496, "longitude": -3.680681380377396, "location": {"type": "Point", "coordinates": [40.42763190893496, -3.680681380377396]}, "type": "Student Center"}, {"name": "Colegio Nuestra Se\u00f1ora de Loreto", "latitude": 40.42810184073901, "longitude": -3.6797380901449266, "location": {"type": "Point", "coordinates": [40.42810184073901, -3.6797380901449266]}, "type": "Science"}, {"name": "Colegio Oficial De Veterinarios De Madrid", "latitude": 40.44286508480096, "longitude": -3.6900023741563293, "location": {"type": "Point", "coordinates": [40.44286508480096, -3.6900023741563293]}, "type": "Education"}, {"name": "Colegio Oficial de M\u00e9dicos de Madrid", "latitude": 40.4091804660735, "longitude": -3.6951806719415647, "location": {"type": "Point", "coordinates": [40.4091804660735, -3.6951806719415647]}, "type": "Building"}, {"name": "C.C. Colegio Montpellier", "latitude": 40.437760338139896, "longitude": -3.65417086213717, "location": {"type": "Point", "coordinates": [40.437760338139896, -3.65417086213717]}, "type": "School"}, {"name": "Colegio Nuestra Se\u00f1ora Del Pilar (Hijas de la Caridad)", "latitude": 40.431987629479885, "longitude": -3.67617130279541, "location": {"type": "Point", "coordinates": [40.431987629479885, -3.67617130279541]}, "type": "High School"}, {"name": "Colegio San Agust\u00edn", "latitude": 40.45495666312163, "longitude": -3.6867068713162454, "location": {"type": "Point", "coordinates": [40.45495666312163, -3.6867068713162454]}, "type": "Community College"}, {"name": "Colegio Oficial de Farmac\u00e9uticos de Madrid", "latitude": 40.43129574722014, "longitude": -3.6976364658833187, "location": {"type": "Point", "coordinates": [40.43129574722014, -3.6976364658833187]}, "type": "Financial / Legal"}, {"name": "Colegio Ruso, \u0428\u043a\u043e\u043b\u0430 \u043f\u0440\u0438 \u041f\u043e\u0441\u043e\u043b\u044c\u0441\u0442\u0432\u0435 \u0420\u0424 \u0432 \u0418\u0441\u043f\u0430\u043d\u0438\u0438", "latitude": 40.44499339985315, "longitude": -3.6834772537791345, "location": {"type": "Point", "coordinates": [40.44499339985315, -3.6834772537791345]}, "type": "Academic Building"}, {"name": "Colegio Jes\u00fas Maestro", "latitude": 40.44148548875832, "longitude": -3.7124818524189434, "location": {"type": "Point", "coordinates": [40.44148548875832, -3.7124818524189434]}, "type": "School"}, {"name": "Colegio Nuestra Se\u00f1ora de las Maravillas", "latitude": 40.44639793708533, "longitude": -3.6875044006657043, "location": {"type": "Point", "coordinates": [40.44639793708533, -3.6875044006657043]}, "type": "High School"}, {"name": "Colegio Hermanos Maristas Chamber\u00ed", "latitude": 40.43373958494753, "longitude": -3.69539616101177, "location": {"type": "Point", "coordinates": [40.43373958494753, -3.69539616101177]}, "type": "School"}, {"name": "Colegio Asunci\u00f3n Rinc\u00f3n", "latitude": 40.439888888597345, "longitude": -3.7106877821144373, "location": {"type": "Point", "coordinates": [40.439888888597345, -3.7106877821144373]}, "type": "School"}, {"name": "Colegio Pintor Rosales", "latitude": 40.44430571401732, "longitude": -3.6785093953608428, "location": {"type": "Point", "coordinates": [40.44430571401732, -3.6785093953608428]}, "type": "School"}, {"name": "Colegio Blanca de Castilla", "latitude": 40.43199383271311, "longitude": -3.694707502627493, "location": {"type": "Point", "coordinates": [40.43199383271311, -3.694707502627493]}, "type": "Community College"}, {"name": "Colegio Hispano Alem\u00e1n", "latitude": 40.44786551958834, "longitude": -3.683442581090843, "location": {"type": "Point", "coordinates": [40.44786551958834, -3.683442581090843]}, "type": "Academic Building"}, {"name": "Colegio Profesional De Polit\u00f3logos Y Soci\u00f3logos De La Comunidad De Madrid", "latitude": 40.43109, "longitude": -3.72209, "location": {"type": "Point", "coordinates": [40.43109, -3.72209]}, "type": "Business Services"}, {"name": "Colegio Buen Consejo", "latitude": 40.44730028815323, "longitude": -3.713007199950265, "location": {"type": "Point", "coordinates": [40.44730028815323, -3.713007199950265]}, "type": "School"}, {"name": "Colegio Decroly", "latitude": 40.43682662284023, "longitude": -3.712908635773367, "location": {"type": "Point", "coordinates": [40.43682662284023, -3.712908635773367]}, "type": "Student Center"}, {"name": "Colegio de Fomento Los Olmos", "latitude": 40.41135754859277, "longitude": -3.6673268388683917, "location": {"type": "Point", "coordinates": [40.41135754859277, -3.6673268388683917]}, "type": "School"}, {"name": "Colegio Mayor Chaminade", "latitude": 40.44731775563553, "longitude": -3.717638577646421, "location": {"type": "Point", "coordinates": [40.44731775563553, -3.717638577646421]}, "type": "Residence Hall"}, {"name": "Colegio Chamberi", "latitude": 40.433530325752216, "longitude": -3.695876741121553, "location": {"type": "Point", "coordinates": [40.433530325752216, -3.695876741121553]}, "type": "Student Center"}, {"name": "Terminal 4", "latitude": 40.49170024319674, "longitude": -3.5915200007686963, "location": {"type": "Point", "coordinates": [40.49170024319674, -3.5915200007686963]}, "type": "Terminal"}, {"name": "Terminal 1", "latitude": 40.46397725327795, "longitude": -3.5705560018639453, "location": {"type": "Point", "coordinates": [40.46397725327795, -3.5705560018639453]}, "type": "Terminal"}, {"name": "Terminal 2", "latitude": 40.46851332734213, "longitude": -3.5694341486380265, "location": {"type": "Point", "coordinates": [40.46851332734213, -3.5694341486380265]}, "type": "Terminal"}, {"name": "Metro Avenida de Am\u00e9rica", "latitude": 40.437796954869015, "longitude": -3.6780735547180003, "location": {"type": "Point", "coordinates": [40.437796954869015, -3.6780735547180003]}, "type": "Metro"}, {"name": "Turkish Airlines MAD Airport Office", "latitude": 40.4232431, "longitude": -3.70338, "location": {"type": "Point", "coordinates": [40.4232431, -3.70338]}, "type": ""}, {"name": "Terminal 4 Sat\u00e9lite", "latitude": 40.49469369420535, "longitude": -3.567337989807129, "location": {"type": "Point", "coordinates": [40.49469369420535, -3.567337989807129]}, "type": "Terminal"}, {"name": "Terminal B\u00fahos Pr\u00edncipe P\u00edo", "latitude": 40.42088364426316, "longitude": -3.720600566958776, "location": {"type": "Point", "coordinates": [40.42088364426316, -3.720600566958776]}, "type": "Bus Station"}, {"name": "AIRPORT TAVERN", "latitude": 40.45401795837524, "longitude": -3.678820633312091, "location": {"type": "Point", "coordinates": [40.45401795837524, -3.678820633312091]}, "type": "Pub"}, {"name": "A|X Madrid Airport Barajas", "latitude": 40.41414301418716, "longitude": -3.7030277251869843, "location": {"type": "Point", "coordinates": [40.41414301418716, -3.7030277251869843]}, "type": "Boutique"}, {"name": "Aeropuerto Adolfo Su\u00e1rez Madrid-Barajas (MAD) (Aeropuerto Adolfo Su\u00e1rez Madrid-Barajas)", "latitude": 40.4902221628413, "longitude": -3.569434148638026, "location": {"type": "Point", "coordinates": [40.4902221628413, -3.569434148638026]}, "type": "Airport"}, {"name": "Airport Bus", "latitude": 40.465841995163025, "longitude": -3.5939427205509067, "location": {"type": "Point", "coordinates": [40.465841995163025, -3.5939427205509067]}, "type": "Bus"}, {"name": "Parada Atocha Renfe - L\u00ednea Expr\u00e9s Aeropuerto", "latitude": 40.40672410393115, "longitude": -3.689762820472258, "location": {"type": "Point", "coordinates": [40.40672410393115, -3.689762820472258]}, "type": "Bus Stop"}, {"name": "Club de Madrid", "latitude": 40.41535727740091, "longitude": -3.711218066997701, "location": {"type": "Point", "coordinates": [40.41535727740091, -3.711218066997701]}, "type": "Office"}, {"name": "Parking Terminal 1", "latitude": 40.46431933644491, "longitude": -3.5721445083618164, "location": {"type": "Point", "coordinates": [40.46431933644491, -3.5721445083618164]}, "type": "Parking"}, {"name": "Terminal de llegadas", "latitude": 40.406115, "longitude": -3.688592, "location": {"type": "Point", "coordinates": [40.406115, -3.688592]}, "type": "Baggage Claim"}, {"name": "Ccusi (estaci\u00f3n de Atocha - terminal de Llegadas)", "latitude": 40.40521239544778, "longitude": -3.690698146820068, "location": {"type": "Point", "coordinates": [40.40521239544778, -3.690698146820068]}, "type": "Jewelry"}, {"name": "Sala VIP Iberia Dal\u00ed", "latitude": 40.49097579382162, "longitude": -3.5910894557882416, "location": {"type": "Point", "coordinates": [40.49097579382162, -3.5910894557882416]}, "type": "Lounge"}, {"name": "La Terminal", "latitude": 40.4015393639564, "longitude": -3.7010395493929518, "location": {"type": "Point", "coordinates": [40.4015393639564, -3.7010395493929518]}, "type": "Business Center"}, {"name": "KLM", "latitude": 40.468029082964115, "longitude": -3.5696105795263744, "location": {"type": "Point", "coordinates": [40.468029082964115, -3.5696105795263744]}, "type": "Terminal"}, {"name": "Tryp Madrid Airport Suites", "latitude": 40.4455692, "longitude": -3.5436074, "location": {"type": "Point", "coordinates": [40.4455692, -3.5436074]}, "type": "Hotel"}, {"name": "Terminal de contenedores", "latitude": 40.40355728872937, "longitude": -3.6528556854432552, "location": {"type": "Point", "coordinates": [40.40355728872937, -3.6528556854432552]}, "type": "Parking"}, {"name": "Lavazza Espression", "latitude": 40.46469035577251, "longitude": -3.569305656039403, "location": {"type": "Point", "coordinates": [40.46469035577251, -3.569305656039403]}, "type": "Coffee Shop"}, {"name": "Hotel NH Madrid Barajas Airport", "latitude": 40.45102234157529, "longitude": -3.5949859739113816, "location": {"type": "Point", "coordinates": [40.45102234157529, -3.5949859739113816]}, "type": "Hotel"}, {"name": "Gate D56 \u2013 T2 (MAD)", "latitude": 40.46887369032454, "longitude": -3.568542892630166, "location": {"type": "Point", "coordinates": [40.46887369032454, -3.568542892630166]}, "type": "Gate"}, {"name": "Gate E69 \u2013 T3 (MAD)", "latitude": 40.471147373808726, "longitude": -3.571198165390043, "location": {"type": "Point", "coordinates": [40.471147373808726, -3.571198165390043]}, "type": "Gate"}, {"name": "Hotel Pullman", "latitude": 40.462289554369875, "longitude": -3.6152251339236985, "location": {"type": "Point", "coordinates": [40.462289554369875, -3.6152251339236985]}, "type": "Hotel"}, {"name": "Saludando \u2013 Hilton Madrid Airport", "latitude": 40.452070242278886, "longitude": -3.585532923619286, "location": {"type": "Point", "coordinates": [40.452070242278886, -3.585532923619286]}, "type": "Gym / Fitness"}, {"name": "Gate D54 \u2013 T2 (MAD)", "latitude": 40.46885192235514, "longitude": -3.568551180602851, "location": {"type": "Point", "coordinates": [40.46885192235514, -3.568551180602851]}, "type": "Gate"}, {"name": "Terminal Ejecutiva", "latitude": 40.45764293013396, "longitude": -3.578472617660904, "location": {"type": "Point", "coordinates": [40.45764293013396, -3.578472617660904]}, "type": "Terminal"}, {"name": "Gate H8 \u2013 T4 (MAD)", "latitude": 40.48713225722167, "longitude": -3.5901702504804733, "location": {"type": "Point", "coordinates": [40.48713225722167, -3.5901702504804733]}, "type": "Gate"}]